{
  "route": [
    {
      "order": 0,
      "is_depot": true,
      "venue_name": "VITAL SA — Siège (Tunis)",
      "address": "nan",
      "latitude": 36.819,
      "longitude": 10.166,
      "priority_score": 1.0,
      "cluster": -1,
      "data_source": "dépôt",
      "dist_from_prev": 0.0
    },
    {
      "order": 1,
      "is_depot": false,
      "venue_name": "Pharmacie Mustapha MRAD",
      "address": "Av. Ali Belahouane Ariana 2080 Tunisia",
      "latitude": 36.8619298,
      "longitude": 10.1868475,
      "priority_score": 0.9302,
      "cluster": 2,
      "data_source": "réel",
      "dist_from_prev": 5.12
    },
    {
      "order": 2,
      "is_depot": false,
      "venue_name": "صيدلية غربال الأزرق",
      "address": "R5PV+GF5 Tunis Tunisia",
      "latitude": 36.8362671,
      "longitude": 10.1937208,
      "priority_score": 0.7102,
      "cluster": 2,
      "data_source": "réel",
      "dist_from_prev": 2.92
    },
    {
      "order": 3,
      "is_depot": false,
      "venue_name": "Pharmacie Chaouch - Tunis",
      "address": "79 Av. Hédi Chaker, Tunis 1002, Tunisia",
      "latitude": 36.8165964,
      "longitude": 10.1807976,
      "priority_score": 0.8203,
      "cluster": 0,
      "data_source": "réel",
      "dist_from_prev": 2.47
    },
    {
      "order": 4,
      "is_depot": false,
      "venue_name": "Pharmacie Chaabouni Haykel",
      "address": "11 Rue de Rome, Tunis, Tunisia",
      "latitude": 36.8011007,
      "longitude": 10.1782007,
      "priority_score": 0.8134,
      "cluster": 0,
      "data_source": "imputé",
      "dist_from_prev": 1.74
    },
    {
      "order": 5,
      "is_depot": false,
      "venue_name": "Pharmacie Nada Soussou",
      "address": "9 Rue d'Alger, Tunis 1000, Tunisia",
      "latitude": 36.800496,
      "longitude": 10.1795993,
      "priority_score": 0.8728,
      "cluster": 0,
      "data_source": "réel",
      "dist_from_prev": 0.14
    },
    {
      "order": 6,
      "is_depot": false,
      "venue_name": "Pharmacie Khemiri Lassaad",
      "address": "3 rue 10236 Cité Avicenne 2066 Tunisia",
      "latitude": 36.7608942,
      "longitude": 10.1865762,
      "priority_score": 0.7023,
      "cluster": 0,
      "data_source": "réel",
      "dist_from_prev": 4.45
    },
    {
      "order": 7,
      "is_depot": false,
      "venue_name": "Pharmacie TUNIS Ben Yahmed A-Hصيدلية",
      "address": "8 bis Rue Mongi Slim, Tunis 1000, Tunisia",
      "latitude": 36.7997016,
      "longitude": 10.1759602,
      "priority_score": 0.7463,
      "cluster": 0,
      "data_source": "imputé",
      "dist_from_prev": 4.42
    },
    {
      "order": 8,
      "is_depot": false,
      "venue_name": "Night Pharmacy",
      "address": "R568+J6M, Rue Hedi Saidi, Tunis, Tunisia",
      "latitude": 36.8115791,
      "longitude": 10.1655568,
      "priority_score": 0.734,
      "cluster": 0,
      "data_source": "imputé",
      "dist_from_prev": 1.61
    },
    {
      "order": 9,
      "is_depot": true,
      "venue_name": "VITAL SA — Siège (Tunis)",
      "address": "nan",
      "latitude": 36.819,
      "longitude": 10.166,
      "priority_score": 1.0,
      "cluster": -1,
      "data_source": "dépôt",
      "dist_from_prev": 0.83
    }
  ],
  "total_distance_km": 23.7,
  "nn_distance_km": 29.74,
  "improvement_pct": 20.3,
  "n_stops": 8,
  "drive_time_min": 40.6,
  "visit_time_min": 40.0,
  "total_time_min": 80.6,
  "history_2opt": [
    29.74,
    28.74,
    28.66,
    27.25,
    27.24,
    26.97,
    25.15,
    24.01,
    23.98,
    23.84,
    23.7
  ],
  "n_improvements": 10,
  "target_day": "Monday",
  "target_hour": 10,
  "depot": {
    "name": "VITAL SA — Siège (Tunis)",
    "lat": 36.819,
    "lon": 10.166
  },
  "cluster_id": null,
  "computed_at": "2026-03-28T01:22:39.104291"
}